{
  "Stadiums": [
    {
      "name" :  "로꼬풋살아레나 홍대점",
      "latitude" :  "37.5584714",
      "longitude" :  "126.9264545",
      "address" :  "서울 서대문구 신촌로 13 4층(창천동)"},
    {
      "name" :  "망원동 유수지체육공원 풋살구장",
      "latitude" :  "37.5581099",
      "longitude" :  "126.8947082",
      "address" :  "서울 마포구 망원동 450-3"},
    {
      "name" :  "j풋살장",
      "latitude" :  "37.6149973",
      "longitude" :  "126.8712492",
      "address" :  "경기 고양시 덕양구 화전동 427"},
    {
      "name" :  "화전드림풋살경기장",
      "latitude" :  "37.6122272",
      "longitude" :  "126.8626003",
      "address" :  "경기 고양구 덕양구 해포길 384(화전동)"},
    {
      "name" :  "현대아이파크몰 풋살경기장",
      "latitude" :  "37.5291525",
      "longitude" :  "126.9619996",
      "address" :  "서울 용산구 한강대로 23길 55 용산아이파크몰"},
    {
      "name" :  "로꼬풋살아레나 구로디지털점",
      "latitude" :  "37.5252891",
      "longitude" :  "126.8835339",
      "address" :  "서울 영등포구 대림동 952-19번지 본관동 지하1층"},
    {
      "name" :  "증산체육공원 축구장",
      "latitude" :  "37.5845077",
      "longitude" :  "126.9004543",
      "address" :  "서울 은평구 증산로5길 35-27(증산동)"},
    {
      "name" :  "난지천공원 축구장",
      "latitude" :  "37.5731832",
      "longitude" :  "126.8827616",
      "address" :  "서울 마포구 상암동 1538"},
    {
      "name" :  "고양시인조잔디축구장",
      "latitude" :  "37.6532783",
      "longitude" :  "126.7671456",
      "address" :  "경기 고양시 덕양구 행주내동 290-1"},
    {
      "name" :  "상암풋살장",
      "latitude" :  "37.618111",
      "longitude" :  "126.8146105",
      "address" :  "경기 고양시 덕양구 덕은동 131-12"}
  ]
}
